{"type":"FeatureCollection", "features": [
{"type":"Feature","geometry":{"type":"Point","coordinates":[-122.46797386019246,47.24181419024509]},"properties":{"OBJECTID":10,"NAME":"Bates Technical College - Central Campus","ADDRESS":"2320 S 19TH ST","CITY":"TACOMA","ZIP":"98405","DISTRICT":"NOT APPLICABLE","DIST_NO":"","TYPE":"TECHNICAL","PHONE":"(253) 680-7603","WEBSITE":"https://batestech.edu/","PRS_ID":342,"GRADE":"Higher Education","X_COORD":1151634.216,"Y_COORD":702078.521}},
{"type":"Feature","geometry":{"type":"Point","coordinates":[-122.44638853983874,47.25150616140254]},"properties":{"OBJECTID":11,"NAME":"Bates Technical College - Downtown Campus","ADDRESS":"1101 S YAKIMA AVE","CITY":"TACOMA","ZIP":"98405","DISTRICT":"NOT APPLICABLE","DIST_NO":"","TYPE":"TECHNICAL","PHONE":"(253) 680-7000","WEBSITE":"https://batestech.edu/","PRS_ID":241,"GRADE":"Higher Education","X_COORD":1157081.4561,"Y_COORD":705479.4874}},
{"type":"Feature","geometry":{"type":"Point","coordinates":[-122.4664954172474,47.18787255736512]},"properties":{"OBJECTID":12,"NAME":"Bates Technical College - South Campus","ADDRESS":"2201 S 78TH ST","CITY":"TACOMA","ZIP":"98409","DISTRICT":"NOT APPLICABLE","DIST_NO":"","TYPE":"TECHNICAL","PHONE":"(253) 680-7400","WEBSITE":"https://batestech.edu/","PRS_ID":253,"GRADE":"Higher Education","X_COORD":1151510.8788,"Y_COORD":682400.9323}},
{"type":"Feature","geometry":{"type":"Point","coordinates":[-122.43937819369988,47.25166123209732]},"properties":{"OBJECTID":46,"NAME":"City University","ADDRESS":"1145 BROADWAY PLAZA SUITE 600","CITY":"TACOMA","ZIP":"98402","DISTRICT":"NOT APPLICABLE","DIST_NO":"","TYPE":"UNIVERSITY","PHONE":"(253) 896-3210","WEBSITE":"https://www.cityu.edu/about-cityu/locations-overview/","PRS_ID":365,"GRADE":"Higher Education","X_COORD":1158823.3332,"Y_COORD":705493.151}},
{"type":"Feature","geometry":{"type":"Point","coordinates":[-122.45492109321204,47.25640912901201]},"properties":{"OBJECTID":91,"NAME":"Evergreen State College","ADDRESS":"1210 6TH AVE","CITY":"TACOMA","ZIP":"98405","DISTRICT":"NOT APPLICABLE","DIST_NO":"","TYPE":"COLLEGE","PHONE":"(253) 680-3000","WEBSITE":"https://www.evergreen.edu/tacoma","PRS_ID":255,"GRADE":"Higher Education","X_COORD":1155007.3684,"Y_COORD":707319.661}},
{"type":"Feature","geometry":{"type":"Point","coordinates":[-122.43356750130378,47.23584809855413]},"properties":{"OBJECTID":230,"NAME":"School of Urban Ministry - Tacoma","ADDRESS":"106 S 28TH ST","CITY":"TACOMA","ZIP":"98402","DISTRICT":"NOT APPLICABLE","DIST_NO":"","TYPE":"COLLEGE","PHONE":"(253) 584-3778","WEBSITE":"https://schoolofurbanministry-tacoma.org/","PRS_ID":465,"GRADE":"Higher Education","X_COORD":1160124.6015,"Y_COORD":699691.752}},
{"type":"Feature","geometry":{"type":"Point","coordinates":[-122.52131208121116,47.24649936313513]},"properties":{"OBJECTID":261,"NAME":"Tacoma Community College - Tacoma Campus","ADDRESS":"6501 S 19TH ST","CITY":"TACOMA","ZIP":"98466","DISTRICT":"NOT APPLICABLE","DIST_NO":"","TYPE":"COLLEGE","PHONE":"(253) 566-5000","WEBSITE":"https://www.tacomacc.edu/about/","PRS_ID":245,"GRADE":"Higher Education","X_COORD":1138433.3381,"Y_COORD":704121.8411}},
{"type":"Feature","geometry":{"type":"Point","coordinates":[-122.48106796359309,47.261862051220184]},"properties":{"OBJECTID":273,"NAME":"University Of Puget Sound","ADDRESS":"1500 N WARNER ST","CITY":"TACOMA","ZIP":"98416","DISTRICT":"NOT APPLICABLE","DIST_NO":"","TYPE":"UNIVERSITY","PHONE":"(253) 879-3100","WEBSITE":"https://www.pugetsound.edu/","PRS_ID":252,"GRADE":"Higher Education","X_COORD":1148566.373,"Y_COORD":709469.9368}},
{"type":"Feature","geometry":{"type":"Point","coordinates":[-122.43828053661741,47.24504511461952]},"properties":{"OBJECTID":274,"NAME":"University of Washington - Tacoma ( UWT )","ADDRESS":"1900 COMMERCE ST","CITY":"TACOMA","ZIP":"98402","DISTRICT":"NOT APPLICABLE","DIST_NO":"","TYPE":"UNIVERSITY","PHONE":"(253) 692-4400","WEBSITE":"http://www.tacoma.uw.edu/","PRS_ID":243,"GRADE":"Higher Education","X_COORD":1159036.5583,"Y_COORD":703074.0025}}
]}